[
  {
    "name": "Virudhunagar",
    "lat": 9.5851,
    "lng": 77.9579
  },
  {
    "name": "Aruppukottai",
    "lat": 9.5139,
    "lng": 78.0952
  },
  {
    "name": "Sivakasi",
    "lat": 9.4478,
    "lng": 77.7968
  },
  {
    "name": "Rajapalayam",
    "lat": 9.4527,
    "lng": 77.5531
  },
  {
    "name": "Sattur",
    "lat": 9.3559,
    "lng": 77.9246
  },
  {
    "name": "Srivilliputhur",
    "lat": 9.5097,
    "lng": 77.6332
  },
  {
    "name": "Krishnankovil",
    "lat": 9.5653,
    "lng": 77.6891
  },
  {
    "name": "Kalasalingam University",
    "lat": 9.57,
    "lng": 77.68
  },
  {
    "name": "Thiruchuli",
    "lat": 9.6639,
    "lng": 78.2439
  },
  {
    "name": "Vembakottai",
    "lat": 9.6406,
    "lng": 77.8891
  },
  {
    "name": "Kariapatti",
    "lat": 9.6921,
    "lng": 78.1046
  },
  {
    "name": "Watrap",
    "lat": 9.6333,
    "lng": 77.6333
  },
  {
    "name": "Thiruthangal",
    "lat": 9.48,
    "lng": 77.81
  },
  {
    "name": "Mappilaiurani",
    "lat": 9.58,
    "lng": 77.94
  },
  {
    "name": "Vathirairuppu",
    "lat": 9.59,
    "lng": 77.97
  },
  {
    "name": "Narikkudi",
    "lat": 9.6,
    "lng": 77.95
  },
  {
    "name": "Kallupatti",
    "lat": 9.61,
    "lng": 77.93
  },
  {
    "name": "Cholapuram",
    "lat": 9.62,
    "lng": 77.92
  },
  {
    "name": "Thayilpatti",
    "lat": 9.63,
    "lng": 77.91
  },
  {
    "name": "Puliankulam",
    "lat": 9.64,
    "lng": 77.9
  },
  {
    "name": "Madurai",
    "lat": 9.9252,
    "lng": 78.1198
  },
  {
    "name": "Chennai",
    "lat": 13.0827,
    "lng": 80.2707
  },
  {
    "name": "Bangalore",
    "lat": 12.9716,
    "lng": 77.5946
  },
  {
    "name": "Coimbatore",
    "lat": 11.0168,
    "lng": 76.9558
  },
  {
    "name": "Trichy",
    "lat": 10.7905,
    "lng": 78.7047
  },
  {
    "name": "Tirunelveli",
    "lat": 8.7139,
    "lng": 77.7567
  },
  {
    "name": "Thoothukudi",
    "lat": 8.7642,
    "lng": 78.1348
  },
  {
    "name": "Salem",
    "lat": 11.6643,
    "lng": 78.146
  },
  {
    "name": "Theni",
    "lat": 10.01,
    "lng": 77.48
  },
  {
    "name": "Dindigul",
    "lat": 10.35,
    "lng": 77.95
  },
  {
    "name": "Nagercoil",
    "lat": 8.17,
    "lng": 77.43
  },
  {
    "name": "Tenkasi",
    "lat": 8.9557,
    "lng": 77.3152
  },
  {
    "name": "Sankarankovil",
    "lat": 9.1814,
    "lng": 77.5353
  },
  {
    "name": "Kovilpatti",
    "lat": 9.1747,
    "lng": 77.8694
  },
  {
    "name": "Kayathar",
    "lat": 8.95,
    "lng": 77.8
  },
  {
    "name": "Karaikudi",
    "lat": 10.0667,
    "lng": 78.7833
  },
  {
    "name": "Devakottai",
    "lat": 9.95,
    "lng": 78.8167
  },
  {
    "name": "Ilayangudi",
    "lat": 9.6,
    "lng": 78.6333
  },
  {
    "name": "Ramanathapuram",
    "lat": 9.3833,
    "lng": 78.8333
  },
  {
    "name": "Cumbum",
    "lat": 9.7333,
    "lng": 77.2833
  },
  {
    "name": "Bodinayakkanur",
    "lat": 10.0167,
    "lng": 77.35
  },
  {
    "name": "Palani",
    "lat": 10.45,
    "lng": 77.5333
  },
  {
    "name": "Virudhunagar Junction",
    "lat": 9.586,
    "lng": 77.9585
  },
  {
    "name": "Virudhunagar Bus Stand",
    "lat": 9.5845,
    "lng": 77.959
  },
  {
    "name": "Aruppukottai Station",
    "lat": 9.5145,
    "lng": 78.096
  },
  {
    "name": "Sivakasi Bus Stand",
    "lat": 9.4485,
    "lng": 77.7975
  },
  {
    "name": "Madurai Airport",
    "lat": 9.8344,
    "lng": 78.0933
  },
  {
    "name": "Madurai Railway Station",
    "lat": 9.9197,
    "lng": 78.1194
  },
  {
    "name": "Tuticorin Port",
    "lat": 8.7833,
    "lng": 78.1333
  },
  {
    "name": "Tuticorin Airport",
    "lat": 8.72,
    "lng": 78.03
  },
  {
    "name": "Trichy Airport",
    "lat": 10.7667,
    "lng": 78.7167
  },
  {
    "name": "Coimbatore Airport",
    "lat": 11.03,
    "lng": 77.043
  },
  {
    "name": "Chennai Airport",
    "lat": 12.9941,
    "lng": 80.1709
  },
  {
    "name": "Bangalore Airport",
    "lat": 13.1989,
    "lng": 77.7068
  },
  {
    "name": "Kodaikanal",
    "lat": 10.2381,
    "lng": 77.4892
  },
  {
    "name": "Rameswaram",
    "lat": 9.2881,
    "lng": 79.3128
  },
  {
    "name": "Kanyakumari",
    "lat": 8.0883,
    "lng": 77.5385
  },
  {
    "name": "Courtallam",
    "lat": 8.9333,
    "lng": 77.2833
  },
  {
    "name": "Hogenakkal",
    "lat": 12.12,
    "lng": 77.78
  },
  {
    "name": "Yercaud",
    "lat": 11.78,
    "lng": 78.21
  },
  {
    "name": "Ooty",
    "lat": 11.41,
    "lng": 76.695
  },
  {
    "name": "Thiagarajar College",
    "lat": 9.92,
    "lng": 78.13
  },
  {
    "name": "Thiagarajar School",
    "lat": 9.925,
    "lng": 78.125
  },
  {
    "name": "American College",
    "lat": 9.918,
    "lng": 78.128
  },
  {
    "name": "Madurai Medical College",
    "lat": 9.915,
    "lng": 78.122
  },
  {
    "name": "Alagappa University",
    "lat": 10.08,
    "lng": 78.78
  },
  {
    "name": "Anna University",
    "lat": 13.01,
    "lng": 80.235
  },
  {
    "name": "Apollo Hospital Madurai",
    "lat": 9.93,
    "lng": 78.14
  },
  {
    "name": "Meenakshi Mission Hospital",
    "lat": 9.935,
    "lng": 78.135
  },
  {
    "name": "Government Rajaji Hospital",
    "lat": 9.915,
    "lng": 78.12
  },
  {
    "name": "CMC Vellore",
    "lat": 12.92,
    "lng": 79.13
  },
  {
    "name": "Apollo Chennai",
    "lat": 13.05,
    "lng": 80.25
  },
  {
    "name": "SIDCO Industrial Estate",
    "lat": 9.59,
    "lng": 77.96
  },
  {
    "name": "Sivakasi Industrial Area",
    "lat": 9.45,
    "lng": 77.8
  },
  {
    "name": "Rajapalayam Mills Area",
    "lat": 9.455,
    "lng": 77.555
  },
  {
    "name": "Madurai Industrial Estate",
    "lat": 9.9,
    "lng": 78.1
  },
  {
    "name": "Coimbatore Industrial Area",
    "lat": 11.02,
    "lng": 76.97
  },
  {
    "name": "Thirumangalam",
    "lat": 9.85,
    "lng": 77.85
  },
  {
    "name": "T. Kallupatti",
    "lat": 9.7,
    "lng": 77.87
  },
  {
    "name": "Chellampatti",
    "lat": 9.75,
    "lng": 77.9
  },
  {
    "name": "Paramakudi",
    "lat": 9.55,
    "lng": 78.6
  },
  {
    "name": "Mudukulathur",
    "lat": 9.35,
    "lng": 78.5
  },
  {
    "name": "Kamuthi",
    "lat": 9.4,
    "lng": 78.4
  },
  {
    "name": "Manamadurai",
    "lat": 9.7,
    "lng": 78.5
  },
  {
    "name": "Sivaganga",
    "lat": 9.8667,
    "lng": 78.4833
  },
  {
    "name": "Alangulam",
    "lat": 8.8667,
    "lng": 77.5
  },
  {
    "name": "Valliyoor",
    "lat": 8.4167,
    "lng": 77.65
  },
  {
    "name": "Ettayapuram",
    "lat": 9.15,
    "lng": 77.9833
  },
  {
    "name": "Vilathikulam",
    "lat": 9.1333,
    "lng": 78.1667
  },
  {
    "name": "Ottapidaram",
    "lat": 8.9,
    "lng": 78.0167
  },
  {
    "name": "Shenkottai",
    "lat": 8.9667,
    "lng": 77.2333
  }
]